[
    {
        "property_id": "PROP001",
        "name": "Greenwich Groceries",
        "address": "182 Park Lane, London E1 9EP",
        "city": "London",
        "postcode": "E2 2MY",
        "property_type": "Food Bank",
        "housing_type": "N/A",
        "capacity": 0,
        "accessibility_features": [
            "Wheelchair accessible"
        ],
        "availability_status": "Always Available",
        "capacity_info": "Limited supplies, call ahead.",
        "last_available_date": "2025-10-11",
        "provider_name": "City Council Housing",
        "weekly_cost": 0.0,
        "latitude": 51.511581,
        "longitude": -0.019233,
        "notes": "Walk-ins welcome.",
        "hours": "Fri, Mon, Thu: 9:00 - 14:00"
    },
    {
        "property_id": "PROP002",
        "name": "The Compassion House",
        "address": "134 Park Lane, London SE4 8DD",
        "city": "London",
        "postcode": "SE1 7YJ",
        "property_type": "Shelter Bed",
        "housing_type": "Temporary",
        "capacity": 18,
        "accessibility_features": [],
        "availability_status": "Occupied",
        "capacity_info": "Currently full.",
        "last_available_date": "2024-09-09",
        "provider_name": "London Housing Charity",
        "weekly_cost": 0.0,
        "latitude": 51.555252,
        "longitude": -0.002773,
        "notes": "No religious affiliation.",
        "hours": "Open 18:00 - 8:00 daily"
    },
    {
        "property_id": "PROP003",
        "name": "Waterloo Food Share",
        "address": "142 Station Gardens, London NW3 3CX",
        "city": "London",
        "postcode": "E2 4EV",
        "property_type": "Food Bank",
        "housing_type": "N/A",
        "capacity": 0,
        "accessibility_features": [
            "Lift access",
            "Sensory friendly"
        ],
        "availability_status": "Always Available",
        "capacity_info": "Well-stocked.",
        "last_available_date": "2024-11-09",
        "provider_name": "London Housing Charity",
        "weekly_cost": 0.0,
        "latitude": 51.449752,
        "longitude": -0.103856,
        "notes": "Requires referral.",
        "hours": "Fri, Mon, Thu, Wed: 9:00 - 13:00"
    },
    {
        "property_id": "PROP004",
        "name": "King's Cross Kitchen",
        "address": "57 Park Terrace, London N4 4TK",
        "city": "London",
        "postcode": "E1 7KG",
        "property_type": "Food Bank",
        "housing_type": "N/A",
        "capacity": 0,
        "accessibility_features": [
            "Ground floor"
        ],
        "availability_status": "Always Available",
        "capacity_info": "Limited supplies, call ahead.",
        "last_available_date": "2024-01-09",
        "provider_name": "Homeless Aid UK",
        "weekly_cost": 0.0,
        "latitude": 51.400829,
        "longitude": -0.078577,
        "notes": "Offers hygiene kits.",
        "hours": "Fri, Mon, Thu, Wed: 11:00 - 14:00"
    },
    {
        "property_id": "PROP005",
        "name": "London Affordable Housing",
        "address": "58 Main Square, London E3 3TM",
        "city": "London",
        "postcode": "SW1 7MS",
        "property_type": "Temporary Flat",
        "housing_type": "Temporary",
        "capacity": 26,
        "accessibility_features": [
            "Sensory friendly"
        ],
        "availability_status": "Available",
        "capacity_info": "9 beds available (as of 05:46 PM GMT).",
        "last_available_date": "2024-04-23",
        "provider_name": "London Housing Charity",
        "weekly_cost": 0.0,
        "latitude": 51.486977,
        "longitude": -0.109883,
        "notes": "Men only.",
        "hours": "Open 18:00 - 9:00 daily"
    },
    {
        "property_id": "PROP006",
        "name": "Bow Road Shelter",
        "address": "153 Church Road, London WC6 6XC",
        "city": "London",
        "postcode": "NW1 3XR",
        "property_type": "Shelter Bed",
        "housing_type": "Temporary",
        "capacity": 10,
        "accessibility_features": [
            "Sensory friendly",
            "Ground floor"
        ],
        "availability_status": "Allocated",
        "capacity_info": "Allocated, check back later.",
        "last_available_date": "2024-06-09",
        "provider_name": "City Council Housing",
        "weekly_cost": 0.0,
        "latitude": 51.455255,
        "longitude": -0.094433,
        "notes": "Men only.. Referral required.",
        "hours": "Open 17:00 - 8:00 daily"
    },
    {
        "property_id": "PROP007",
        "name": "Islington Crisis Accommodation",
        "address": "57 Station Road, London E1 2KX",
        "city": "London",
        "postcode": "SW8 1DF",
        "property_type": "Shelter Bed",
        "housing_type": "Temporary",
        "capacity": 44,
        "accessibility_features": [],
        "availability_status": "Occupied",
        "capacity_info": "Currently full.",
        "last_available_date": "2025-10-05",
        "provider_name": "City Council Housing",
        "weekly_cost": 0.0,
        "latitude": 51.526107,
        "longitude": -0.14514,
        "notes": "Communal kitchen available.. Pet-friendly (small animals).",
        "hours": "Open 19:00 - 8:00 daily"
    },
    {
        "property_id": "PROP008",
        "name": "The Haven for All",
        "address": "25 Station Place, London N3 3VV",
        "city": "London",
        "postcode": "W1 4CY",
        "property_type": "Hostel Room",
        "housing_type": "Temporary",
        "capacity": 10,
        "accessibility_features": [
            "Lift access",
            "Wheelchair accessible"
        ],
        "availability_status": "Occupied",
        "capacity_info": "Currently full.",
        "last_available_date": "2024-05-09",
        "provider_name": "Homeless Aid UK",
        "weekly_cost": 0.0,
        "latitude": 51.447436,
        "longitude": -0.052991,
        "notes": "Women and children only.. No religious affiliation.",
        "hours": "Open 19:00 - 8:00 daily"
    },
    {
        "property_id": "PROP009",
        "name": "The Nourish Network",
        "address": "74 Church Terrace, London N2 3FT",
        "city": "London",
        "postcode": "SW8 9EY",
        "property_type": "Food Bank",
        "housing_type": "N/A",
        "capacity": 0,
        "accessibility_features": [
            "Ground floor"
        ],
        "availability_status": "Always Available",
        "capacity_info": "Well-stocked.",
        "last_available_date": "2024-12-28",
        "provider_name": "London Housing Charity",
        "weekly_cost": 0.0,
        "latitude": 51.538511,
        "longitude": -0.215122,
        "notes": "Walk-ins welcome.",
        "hours": "Fri, Mon, Thu, Wed: 9:00 - 14:00"
    },
    {
        "property_id": "PROP010",
        "name": "Hope Haven Night Shelter",
        "address": "171 Elm Street, London W9 1XH",
        "city": "London",
        "postcode": "SW8 4CP",
        "property_type": "Shelter Bed",
        "housing_type": "Temporary",
        "capacity": 17,
        "accessibility_features": [],
        "availability_status": "Available",
        "capacity_info": "5 beds available (as of 05:46 PM GMT).",
        "last_available_date": "2025-02-02",
        "provider_name": "Homeless Aid UK",
        "weekly_cost": 0.0,
        "latitude": 51.447893,
        "longitude": -0.073808,
        "notes": "Men only.",
        "hours": "Open 19:00 - 7:00 daily"
    },
    {
        "property_id": "PROP011",
        "name": "City Road Shelter",
        "address": "113 Green Avenue, London W1 6MP",
        "city": "London",
        "postcode": "SE11 8VL",
        "property_type": "Shelter Bed",
        "housing_type": "Temporary",
        "capacity": 15,
        "accessibility_features": [
            "Wheelchair accessible",
            "Lift access"
        ],
        "availability_status": "Occupied",
        "capacity_info": "Currently full.",
        "last_available_date": "2024-02-27",
        "provider_name": "London Housing Charity",
        "weekly_cost": 0.0,
        "latitude": 51.545851,
        "longitude": 0.006809,
        "notes": "Strict no-alcohol policy.. Communal kitchen available.",
        "hours": "Open 18:00 - 7:00 daily"
    },
    {
        "property_id": "PROP012",
        "name": "Victoria Food Support",
        "address": "167 Oak Close, London NW3 3YX",
        "city": "London",
        "postcode": "E1 3NA",
        "property_type": "Food Bank",
        "housing_type": "N/A",
        "capacity": 0,
        "accessibility_features": [
            "Sensory friendly"
        ],
        "availability_status": "Always Available",
        "capacity_info": "Limited supplies, call ahead.",
        "last_available_date": "2024-01-23",
        "provider_name": "City Council Housing",
        "weekly_cost": 0.0,
        "latitude": 51.548086,
        "longitude": -0.110692,
        "notes": "Offers hygiene kits.",
        "hours": "Mon, Thu, Wed: 10:00 - 15:00"
    },
    {
        "property_id": "PROP013",
        "name": "City Harvest London",
        "address": "27 Park Street, London SE9 8UC",
        "city": "London",
        "postcode": "E1 3YW",
        "property_type": "Food Bank",
        "housing_type": "N/A",
        "capacity": 0,
        "accessibility_features": [
            "Lift access"
        ],
        "availability_status": "Always Available",
        "capacity_info": "Limited supplies, call ahead.",
        "last_available_date": "2024-07-03",
        "provider_name": "Homeless Aid UK",
        "weekly_cost": 0.0,
        "latitude": 51.531231,
        "longitude": -0.299581,
        "notes": "Offers hygiene kits.",
        "hours": "Fri, Mon, Tue, Wed: 11:00 - 15:00"
    },
    {
        "property_id": "PROP014",
        "name": "London Food Rescue",
        "address": "43 Oak Lane, London EC1 3DC",
        "city": "London",
        "postcode": "SE1 9TD",
        "property_type": "Food Bank",
        "housing_type": "N/A",
        "capacity": 0,
        "accessibility_features": [
            "Lift access",
            "Wheelchair accessible"
        ],
        "availability_status": "Always Available",
        "capacity_info": "Well-stocked.",
        "last_available_date": "2025-01-19",
        "provider_name": "Homeless Aid UK",
        "weekly_cost": 0.0,
        "latitude": 51.50736,
        "longitude": -0.063689,
        "notes": "Offers hygiene kits.",
        "hours": "Fri, Mon: 9:00 - 16:00"
    },
    {
        "property_id": "PROP015",
        "name": "Waterloo Food Share",
        "address": "103 White Walk, London WC5 2RE",
        "city": "London",
        "postcode": "WC1 4HJ",
        "property_type": "Food Bank",
        "housing_type": "N/A",
        "capacity": 0,
        "accessibility_features": [],
        "availability_status": "Always Available",
        "capacity_info": "Limited supplies, call ahead.",
        "last_available_date": "2024-04-12",
        "provider_name": "Homeless Aid UK",
        "weekly_cost": 0.0,
        "latitude": 51.508697,
        "longitude": -0.230189,
        "notes": "Walk-ins welcome.",
        "hours": "Thu, Tue, Wed: 10:00 - 14:00"
    },
    {
        "property_id": "PROP016",
        "name": "Greenwich Groceries",
        "address": "133 Elm Square, London N8 2QT",
        "city": "London",
        "postcode": "E2 5CU",
        "property_type": "Food Bank",
        "housing_type": "N/A",
        "capacity": 0,
        "accessibility_features": [
            "Ground floor",
            "Sensory friendly"
        ],
        "availability_status": "Always Available",
        "capacity_info": "Well-stocked.",
        "last_available_date": "2024-04-15",
        "provider_name": "London Housing Charity",
        "weekly_cost": 0.0,
        "latitude": 51.538083,
        "longitude": -0.132673,
        "notes": "Offers hygiene kits.",
        "hours": "Fri, Mon, Thu, Wed: 11:00 - 15:00"
    },
    {
        "property_id": "PROP017",
        "name": "City Respite Homes",
        "address": "108 Oak Terrace, London N8 6DS",
        "city": "London",
        "postcode": "SW1 8TR",
        "property_type": "Temporary Flat",
        "housing_type": "Temporary",
        "capacity": 14,
        "accessibility_features": [
            "Sensory friendly",
            "Ground floor"
        ],
        "availability_status": "Occupied",
        "capacity_info": "Currently full.",
        "last_available_date": "2025-09-16",
        "provider_name": "Homeless Aid UK",
        "weekly_cost": 0.0,
        "latitude": 51.48005,
        "longitude": 0.019139,
        "notes": "Women and children only.",
        "hours": "Open 17:00 - 9:00 daily"
    },
    {
        "property_id": "PROP018",
        "name": "City Harvest London",
        "address": "22 Green Close, London SE8 9HT",
        "city": "London",
        "postcode": "W1 5HB",
        "property_type": "Food Bank",
        "housing_type": "N/A",
        "capacity": 0,
        "accessibility_features": [
            "Wheelchair accessible",
            "Ground floor"
        ],
        "availability_status": "Always Available",
        "capacity_info": "Limited supplies, call ahead.",
        "last_available_date": "2025-04-03",
        "provider_name": "London Housing Charity",
        "weekly_cost": 0.0,
        "latitude": 51.471106,
        "longitude": -0.07527,
        "notes": "Walk-ins welcome.",
        "hours": "Fri, Thu: 10:00 - 15:00"
    },
    {
        "property_id": "PROP019",
        "name": "London Bridge Refuge",
        "address": "45 Station Gardens, London N1 8CC",
        "city": "London",
        "postcode": "N1 9AT",
        "property_type": "Hostel Room",
        "housing_type": "Temporary",
        "capacity": 46,
        "accessibility_features": [
            "Ground floor",
            "Lift access"
        ],
        "availability_status": "Occupied",
        "capacity_info": "Currently full.",
        "last_available_date": "2025-06-14",
        "provider_name": "Homeless Aid UK",
        "weekly_cost": 0.0,
        "latitude": 51.542985,
        "longitude": -0.08605,
        "notes": "Referral required.. Women and children only.",
        "hours": "Open 18:00 - 7:00 daily"
    },
    {
        "property_id": "PROP020",
        "name": "Angel Islington Shelter",
        "address": "152 White Walk, London NW5 6FT",
        "city": "London",
        "postcode": "SE1 9ML",
        "property_type": "Hostel Room",
        "housing_type": "Temporary",
        "capacity": 17,
        "accessibility_features": [
            "Lift access",
            "Wheelchair accessible"
        ],
        "availability_status": "Available",
        "capacity_info": "1 beds available (as of 05:46 PM GMT).",
        "last_available_date": "2025-01-27",
        "provider_name": "Homeless Aid UK",
        "weekly_cost": 0.0,
        "latitude": 51.539293,
        "longitude": -0.098832,
        "notes": "No religious affiliation.. Referral required.",
        "hours": "Open 17:00 - 7:00 daily"
    }
]